TimeStamp(ms),Temperature(*C),Pressure(Pa),Altitude(m),AccelX(m/s^2),AccelY(m/s^2),AccelZ(m/s^2),MagX(uT),MagY(uT),MagZ(uT),GyroX(rad/s),GyroY(rad/s),GyroZ(rad/s),OriPitch,OriRoll,OriHeading,Latitude,Longitude,Altitude(m),Speed(m/s),Voltage(V)
1001,24.51,101226.8125,-4375.3345,0,0,0,-0.1818,11.6364,49.3878,0.0411,0.2899,0.0244,0,-90,-166.7422,0,0,0,0,4.1314
2002,24.57,101231.4531,-4375.7593,0.1961,2.5105,9.2575,1.2727,12.3636,50.7143,-1.066,-1.3324,-0.1454,15.1729,-1.1714,81.2804,0,0,0,0,4.1508
3003,24.58,101228.2109,-4375.4624,-0.5099,0.0392,9.689,-0.6364,9.6364,52.0408,-1.83,-2.6023,1.4511,0.232,3.0128,-77.4298,0,0,0,0,4.1314
4004,24.58,101226.3828,-4375.2954,-0.7845,0.1177,10.042,-10.7273,-11.1818,48.3673,-3.1556,4.4059,-1.6402,0.6714,4.4669,120.5658,0,0,0,0,4.1314
5005,24.59,101227.75,-4375.4204,-0.5492,-0.1961,9.8459,-9.5455,-4.2727,49.0816,-3.9784,3.1379,-4.1864,-1.1412,3.1918,154.1304,0,0,0,0,4.1508
6006,24.6,101222.3281,-4374.9238,-0.863,0.1569,9.9636,-9.2727,0.1818,48.4694,-4.8596,2.4702,3.3243,0.9022,4.9497,173.4408,0,0,0,0,4.1443
7007,24.61,101226.3438,-4375.3823,-0.6669,0.4707,9.8851,-8.4545,1,48.8776,4.7909,1.2498,4.1505,2.7263,3.855,165.5609,0,0,0,0,4.1443
8008,24.61,101228,-4375.4429,-1.0199,0,9.689,-8.0909,1.6364,48.6735,4.5534,0.7034,3.8536,0,6.009,-150.9918,0,0,0,0,4.1508
9009,24.61,101228.8281,-4375.5186,-0.5492,-0.1569,9.7674,-7.8182,1.1818,48.9796,3.928,-0.482,2.3923,-0.9203,3.2176,-158.7363,0,0,0,0,4.1443
10010,24.61,101227.1719,-4375.3677,-1.2553,-1.2553,8.4337,-7.4545,0.6364,48.2653,3.2093,-1.7484,2.907,-8.4656,8.3747,-93.2237,0,0,0,0,4.1443
11011,24.61,101228.0156,-4375.4443,-1.6867,0.863,11.6503,-7.7273,2.0909,48.0612,2.1805,-2.7327,2.7115,4.2364,8.2159,117.9234,0,0,0,0,4.1443
12012,24.61,101229.8281,-4375.6104,-0.9022,0.1177,10.042,-7.3636,1.3636,48.2653,1.8764,-3.2645,2.8184,0.6714,5.1335,-165.1724,0,0,0,0,4.1443
13013,24.61,101230.8203,-4375.7017,-1.2945,0.0392,9.8851,-8.0909,0.9091,48.6735,1.009,-4.0685,4.0711,0.2274,7.4605,-157.1874,0,0,0,0,4.1572
14014,24.61,101228.0156,-4375.4443,-0.8238,0.4315,10.3558,-7.7273,-0.5455,48.2653,0.9384,-4.6348,4.1632,2.3859,4.5441,146.6706,0,0,0,0,4.1314
15015,24.62,101227.0781,-4375.3584,-0.7845,0.0392,9.8459,-8.9091,1.9091,47.551,-0.5789,3.8416,-3.0403,0.2283,4.5557,-161.3785,0,0,0,0,4.1572
16016,24.61,101228.8281,-4375.5186,-0.7453,0.1569,10.0028,-8.4545,3.1818,48.0612,-1.462,2.6281,4.5041,0.8987,4.2607,-153.4443,0,0,0,0,4.1443
17017,24.61,101229.5078,-4375.5811,-0.5099,0.2746,10.3558,-6.5455,3.3636,48.0612,-1.876,1.9233,3.2947,1.5189,2.8181,-153.4016,0,0,0,0,4.1443
18018,24.61,101226.8438,-4375.3374,-0.9414,0.1569,10.1205,-7,3.7273,48.9796,-2.5951,1.268,-4.4288,0.8882,5.3139,-129.301,0,0,0,0,4.1379
19019,24.6,101228.125,-4375.4546,-0.9807,0.1961,9.9636,-8.4545,4.2727,47.9592,-3.4847,-0.1697,4.6142,1.1277,5.6202,-138.1051,0,0,0,0,4.1379
20020,24.61,101228.9922,-4375.5342,-0.7845,0.2354,10.0028,-8,4.6364,48.9796,-4.0224,-1.2147,-3.0768,1.3479,4.4834,-139.9219,0,0,0,0,4.1443
21021,24.61,101229.1563,-4375.5488,-0.863,0.3138,10.1205,-8.2727,4.9091,47.7551,-4.5844,-2.1254,4.7255,1.776,4.8716,-140.6316,0,0,0,0,4.1508
22022,24.61,101228.6641,-4375.5039,-0.8238,0.1569,9.9243,-7.2727,7,48.6735,4.7906,-3.1991,-4.3089,0.9058,4.7443,-117.2857,0,0,0,0,4.1443
23023,24.6,101226.3125,-4375.2886,-0.9022,0.2746,9.5713,-6.6364,7.4545,49.0816,4.1021,-4.2057,3.4906,1.6433,5.3827,-108.1788,0,0,0,0,4.1508
24024,24.6,101226.4688,-4375.3027,-0.7453,0.2354,10.0812,-4.0909,10.6364,49.2857,3.5358,4.7006,0.547,1.3374,4.227,-92.5943,0,0,0,0,4.1379
25025,24.6,101226.6406,-4375.3184,-0.863,0.0392,9.9243,-4.0909,10.6364,48.5714,2.819,3.5401,0.8376,0.2265,4.9697,-89.2552,0,0,0,0,4.1508
26026,24.6,101227.4688,-4375.394,-1.0983,0.1177,9.8851,-3.4545,10.3636,47.9592,2.2068,2.5163,0.8935,0.6821,6.3397,-79.1563,0,0,0,0,4.1379
27027,24.59,101228.4141,-4375.6709,-0.7453,0.3138,10.0028,-2.8182,11.9091,48.8776,1.9358,1.5226,2.0666,1.7969,4.2591,-85.3387,0,0,0,0,4.1443
28028,24.6,101230.3047,-4375.6538,-0.7845,0.1961,9.9636,-2.8182,11.2727,48.1633,1.1894,0.379,0.5082,1.1277,4.5013,-84.5375,0,0,0,0,4.1443
29029,24.6,101226.8047,-4375.334,-0.5884,-0.0392,9.8459,-2.0909,10,48.2653,0.8737,-0.5641,2.5421,-0.2283,3.42,-85.5699,0,0,0,0,4.1508
30030,24.61,101225.8438,-4375.2456,-0.6669,-0.0392,10.042,-1.9091,9.7273,48.8776,0.6651,-1.0791,1.0041,-0.2238,3.7992,-82.3556,0,0,0,0,4.1443
31031,24.61,101231.3125,-4375.7461,-0.4707,0.0392,9.4144,-3.1818,10.5455,49.1837,-0.4273,-1.587,3.4984,0.2387,2.8624,-93.9807,0,0,0,0,4.1443
32032,24.6,101230.125,-4375.6377,-0.4315,0.0785,9.7674,-4.2727,8.2727,49.3878,-1.1109,-2.6105,3.2092,0.4602,2.5294,-104.8356,0,0,0,0,4.1379
33033,24.6,101231.2813,-4375.7437,-0.6669,0.1961,10.0028,-4.9091,8.1818,48.4694,-1.4699,-3.3385,3.4115,1.1233,3.8133,-102.9659,0,0,0,0,4.1379
34034,24.6,101227.7969,-4375.4243,0,-3.4912,9.5321,-4.5455,9,48.2653,-2.3749,-4.5569,2.7301,-20.1155,0,-100.2847,0,0,0,0,4.1314
35035,24.59,101226.4063,-4375.2969,0.0392,1.3337,8.9437,-2.0909,10,48.0612,-3.0415,4.6407,1.4594,8.4816,-0.2485,-129.4234,0,0,0,0,4.1379
36036,24.6,101226.3125,-4375.2886,-0.5492,0.2746,9.7674,-1.0909,9.1818,47.3469,-3.4117,4.0291,0.815,1.6103,3.2168,-78.6091,0,0,0,0,4.1379
37037,24.59,101224.7422,-4375.1455,-3.3343,-2.7066,9.2575,0.3636,7.6364,49.0816,-3.2703,3.6429,1.0802,-16.2975,19.0701,-54.5311,0,0,0,0,4.1443
38038,24.59,101225.2656,-4375.1929,-0.1569,-0.5492,9.3752,-1.7273,9.1818,49.1837,-4.0131,2.766,2.0714,-3.3524,0.9572,-94.3488,0,0,0,0,4.1443
39039,24.59,101227.25,-4375.3745,-0.3138,-0.6669,9.4144,-1.5455,10,49.1837,-4.4172,2.158,4.1792,-4.0517,1.9044,-89.7346,0,0,0,0,4.1508
40040,24.59,101228.5781,-4375.4956,-0.8238,0.6276,10.4735,-1.6364,9.7273,48.2653,4.8611,0.859,2.5314,3.4294,4.4891,-72.241,0,0,0,0,4.1508
41041,24.59,101225.7344,-4375.2354,-2.1575,-3.4519,11.8464,-10.9091,2.0909,50.3061,3.7014,-0.7721,2.4971,-16.2456,9.9178,-98.9352,0,0,0,0,4.1443
42042,24.59,101222.4219,-4374.9321,6.6293,-5.6879,4.1188,29.8182,-53,26.8367,-4.1293,-2.0659,-1.7116,-54.0903,-43.35,153.3013,0,0,0,0,4.1443
43043,24.59,101222.5859,-4374.9473,6.1978,-6.7077,0.7061,31.5455,-65.0909,-7.7551,-1.1385,2.292,1.6073,-83.991,-42.5799,144.0385,0,0,0,0,4.1508
44044,24.59,101221.5938,-4374.8569,8.7083,-3.1774,-1.5691,52.3636,-52.8182,-8.3673,3.0296,-2.1026,-0.1617,-116.2814,-67.8572,-150.043,0,0,0,0,4.1443
45045,24.59,101221.7656,-4374.8726,9.1006,-3.805,-0.6669,51.9091,-52.3636,-3.1633,0.4499,-2.7605,-0.5429,-99.9406,-66.9999,-167.9282,0,0,0,0,4.1443
46046,24.59,101216.4531,-4374.3857,8.8652,-3.2558,-2.079,53,-52.2727,-12.0408,1.4781,-1.7443,0.2698,-122.5604,-66.4551,-144.4405,0,0,0,0,4.1508
47047,24.58,101221.0781,-4374.8091,8.1591,-6.6685,-0.8238,41.8182,-60,-3.4694,-0.8399,-4.1247,-4.1058,-97.042,-50.5279,-168.7727,0,0,0,0,4.1443
48048,24.58,101220.5625,-4374.7617,7.3746,-5.6486,2.432,35.5455,-57,18.1633,2.9742,1.7964,1.5789,-66.7054,-50.174,165.6848,0,0,0,0,4.1508
49049,24.58,101223.0625,-4374.9912,8.0415,-4.9426,1.216,43.5455,-57.6364,5.102,-3.7138,1.2788,4.4062,-76.1779,-57.6677,160.5985,0,0,0,0,4.1508
50050,24.58,101222.7344,-4374.9614,7.8453,-4.2757,-0.3138,48,-55.5455,1.4286,-4.1033,1.6179,0.8381,-94.1977,-61.3449,-167.8499,0,0,0,0,4.1508
51051,24.58,101223.3828,-4375.0205,6.8254,-5.4917,3.6481,37.9091,-58.8182,12.1429,2.4969,-1.8889,3.4618,-56.4045,-45.9924,121.4773,0,0,0,0,4.1443
52052,24.58,101221.7422,-4374.8696,6.2763,-7.1,-1.7652,39.7273,-62,-3.9796,4.8423,3.7206,3.0137,-103.9617,-40.6251,-131.0066,0,0,0,0,4.1508
53053,24.59,101221.7656,-4374.8726,7.9238,-5.4133,-1.4122,45.1818,-58.1818,-0.6122,2.2672,3.0869,4.6304,-104.6209,-54.7767,-144.9047,0,0,0,0,4.1314
54054,24.58,101220.7344,-4374.5967,8.0415,-4.668,-1.1768,47.6364,-56.1818,-1.0204,1.5956,2.1318,0.75,-104.1495,-59.0931,-150.4586,0,0,0,0,4.1443
55055,24.58,101224.3984,-4375.1128,8.3553,-4.6287,-1.8829,48.1818,-55.3636,0.102,1.2339,0.6324,-3.6062,-112.1355,-59.1176,-132.569,0,0,0,0,4.1379
56056,24.57,101219.8516,-4374.6963,7.4531,-4.0403,4.0403,35.0909,-43.7273,35.5102,3.0252,1.3192,-3.2687,-45,-52.5243,165.8903,0,0,0,0,4.1314
57057,24.59,101222.2578,-4374.9175,5.0995,-2.5105,7.61,18.9091,-29.1818,51.0204,-4.2315,4.7829,0.0087,-18.2576,-32.4714,141.9191,0,0,0,0,4.1508
58058,24.58,101225.5391,-4375.2173,3.2166,-6.6293,4.6287,4.4545,-42.8182,43.8776,-0.5423,3.1794,3.9308,-55.0763,-21.6941,-147.687,0,0,0,0,4.1379
59059,24.58,101223.3828,-4375.0205,-5.4917,0.7845,7.1785,-32.3636,18,33.8776,0.2556,3.0494,4.9682,6.2371,37.253,-106.4288,0,0,0,0,4.1508
60060,24.58,101223.0469,-4374.9897,-0.5099,-5.6486,8.7868,-15.5455,-23.5455,48.2653,-4.4266,-0.7663,-2.578,-32.7352,2.7949,-154.0385,0,0,0,0,4.1508
61061,24.58,101224.5469,-4375.127,3.8442,-4.9818,7.963,10.3636,-40.1818,45,-2.6194,0.3195,-2.0896,-32.0307,-22.2576,141.7385,0,0,0,0,4.1508
62062,24.58,101219.4063,-4374.6567,4.0796,-4.9818,7.1392,12.3636,-44.8182,41.6327,-1.8306,-1.2978,-0.2297,-34.9074,-25.1085,137.6305,0,0,0,0,4.1443
63063,24.57,101225.8203,-4375.2432,3.4912,-4.4326,7.9238,11.5455,-41.7273,45,-3.6185,-2.3219,-0.5078,-29.2229,-21.0327,126.3454,-37.5494,175.2625,125.6,0.41,4.1508
64064,24.58,101224.2109,-4375.0962,3.6873,-4.8249,8.0022,9.5455,-38.0909,47.0408,4.3388,-3.7336,4.1724,-31.0875,-21.5345,147.5997,-37.5494,175.2625,125.6,0.35,4.1314
65065,24.57,101221.6719,-4374.8638,3.4912,-3.6481,7.8453,6.2727,-37.3636,47.551,3.5769,4.2936,4.1412,-24.9384,-21.9745,139.5335,-37.5494,175.2625,125.7,0.39,4.1379
66066,24.57,101219.8281,-4374.6953,3.2166,-4.7464,8.3945,6.9091,-36.0909,48.4694,2.4745,3.7189,-1.1186,-29.4847,-18.4462,148.6629,-37.5494,175.2625,125.7,0.44,4.1508
67067,24.57,101223.9766,-4375.0747,4.3934,-3.805,8.1984,11,-38.4545,46.3265,1.782,2.3034,-2.3575,-24.8967,-25.9237,135.327,-37.5494,175.2625,125.7,0.4,4.1508
68068,24.57,101221.3438,-4374.834,4.5111,-5.7663,2.7066,17.2727,-61.1818,21.1224,1.3233,3.5879,2.0676,-64.8552,-35.3053,163.4237,-37.5494,175.2625,125.7,0.26,4.1443
69069,24.58,101225.2031,-4375.187,3.3343,-8.2768,1.1376,14.0909,-67,4.1837,-3.6699,-3.2927,-0.1516,-82.1743,-21.7565,156.9993,-37.5494,175.2625,125.7,0.24,4.1379
70070,24.57,101224.4688,-4375.1196,7.6492,-5.0602,1.7652,39.2727,-61.1818,1.2245,-3.1272,-1.5976,-1.022,-70.7693,-54.9836,142.889,-37.5494,175.2625,125.7,0.16,4.1314
71071,24.57,101221.6563,-4374.8623,6.5901,-6.0801,2.2359,35.1818,-63.4545,1.7347,-3.7571,-1.959,3.7515,-69.8094,-45.4904,131.9696,-37.5494,175.2625,125.7,0.29,4.1572
72072,24.58,101228.5156,-4375.4902,6.8647,-6.3155,2.2751,31.2727,-63.6364,5.7143,4.1333,-4.0543,-2.5989,-70.1885,-45.6408,144.0478,-37.5494,175.2625,125.7,0.16,4.1443
73073,24.57,101221.3438,-4374.834,8.0022,-6.0409,-1.8437,33.0909,-65.1818,-10.4082,-3.8474,2.02,1.7819,-106.9719,-51.7168,-163.5982,-37.5494,175.2625,125.7,0.2,4.1443
74074,24.58,101222.0547,-4374.8984,7.6492,-4.0011,0.7845,52.4545,-53,-12.0408,-2.7358,-1.9111,3.5474,-78.9063,-61.9407,131.062,-37.5494,175.2625,125.7,0.05,4.1443
75075,24.57,101224.4844,-4375.1216,5.6486,0.6669,1.5691,57,-47.7273,-5.7143,1.3752,0.6866,-2.8052,23.0255,-73.2049,46.6345,-37.5494,175.2625,125.7,0.04,4.1379
76076,24.57,101223.3125,-4375.0137,8.4337,-4.4718,-0.3138,44.3636,-58.9091,-1.2245,4.4179,4.8603,-0.7466,-94.0142,-62.0077,-174.6758,-37.5494,175.2625,125.7,0.37,4.1379
77077,24.56,101223.4063,-4375.0225,8.4729,-3.6873,3.0204,35,-61.2727,-22.7551,-4.822,-2.6029,-3.5539,-50.6774,-60.64,101.6003,-37.5494,175.2625,125.7,0.15,4.1379
78078,24.57,101224.6406,-4375.1353,4.4718,-7.2177,1.2945,32.1818,-64.7273,-12.7551,1.7486,3.9865,-4.5705,-79.8322,-31.3763,100.6816,-37.5494,175.2625,125.7,0.29,4.1508
79079,24.57,101228.125,-4375.4546,6.1193,-6.9039,2.7851,33.6364,-64.8182,-10.102,-0.3147,4.3469,0.6034,-68.0304,-39.4201,106.2307,-37.5494,175.2625,125.7,0.4,4.1379
80080,24.57,101225.3047,-4375.1963,5.8055,-6.5116,3.0597,35.2727,-63.8182,-9.3878,-1.1116,0.868,1.2787,-64.8321,-38.901,100.0475,-37.5494,175.2625,125.7,0.41,4.1379
81081,24.57,101219.6641,-4374.7705,8.8652,0.5099,11.2973,56.1818,-41.5455,11.9388,1.0124,-3.2953,-3.8946,2.5845,-38.0938,47.8809,-37.5494,175.2625,125.7,0.15,4.1443
82082,24.58,101224.375,-4375.1118,4.2365,6.0017,5.531,60.9091,-2.2727,20.8163,3.6821,3.5887,-2.5815,47.3373,-27.4327,19.218,-37.5494,175.2625,125.7,1.01,4.1379
83083,24.57,101223.4766,-4375.0288,8.5906,2.3536,4.4718,65.7273,-17.0909,9.1837,-2.4653,-3.5006,-1.637,27.7585,-59.5341,30.3148,-37.5494,175.2625,125.7,0.75,4.1572
84084,24.57,101222.9844,-4374.9844,6.3547,1.3337,6.4724,62.7273,-22.8182,16.2245,-2.5345,3.2069,-2.7753,11.6434,-43.879,34.4212,-37.5494,175.2625,125.7,0.44,4.1314
85085,24.56,101220.4219,-4374.749,5.5702,-0.7453,7.2177,54.4545,-37.6364,19.898,-1.2149,-0.7324,0.5707,-5.8955,-37.5119,50.8756,-37.5494,175.2625,123.4,0.45,4.1443
86086,24.56,101221.25,-4374.8252,5.2171,-5.4525,5.884,48.5455,-53.7273,7.2449,4.7504,-0.4962,-3.2344,-42.8202,-33.0384,62.5817,-37.5494,175.2625,123.3,0.29,4.1443
87087,24.56,101223.0781,-4374.9922,6.0017,-4.2365,5.9624,51.7273,-51.0909,6.1224,3.9269,-0.5612,-1.8014,-35.3948,-39.3704,64.6503,-37.5494,175.2625,122.5,0.25,4.1314
88088,24.57,101222.6563,-4375.2715,5.9624,-4.1188,6.1193,0,0,0,-4.8642,-0.6167,2.9734,-33.9436,-38.9492,0,-37.5494,175.2625,121,0.05,4.1379
89089,24.56,101220.9219,-4374.7949,6.4724,-3.1381,6.1193,52.1818,-50.0909,7.2449,-0.9053,4.7573,-2.5812,-27.1497,-43.2636,66.5318,-37.5494,175.2625,120.4,0.03,4.1314
90090,24.56,101220.7578,-4374.7803,6.9039,-4.0011,4.9818,54.8182,-49.1818,2.0408,2.4607,-1.7086,-1.9047,-38.7697,-47.2155,70.0367,-37.5493,175.2625,119.7,0.03,4.1379
91091,24.57,101225.4688,-4375.2114,6.8647,-2.3928,6.1978,58.0909,-41.3636,9.2857,-0.3665,-4.1224,1.0582,-21.1104,-45.9372,56.3396,-37.5493,175.2625,117.9,0.14,4.1443
92092,24.57,101223.6484,-4375.0449,3.3735,-4.7856,8.2376,58.5455,-44.1818,3.0612,3.0433,3.1434,3.5264,-30.1546,-19.4993,38.0198,-37.5493,175.2625,116.1,0.12,4.1443
93093,24.56,101220.9219,-4374.7949,7.1785,-2.0006,5.1387,60.7273,-41.3636,-1.3265,0.7366,4.5881,1.427,-21.2716,-52.4692,56.2527,-37.5493,175.2625,115.3,0.08,4.1443
94094,24.56,101223.2969,-4375.0127,9.4928,-0.863,4.9426,64.0909,-37.6364,-6.4286,-2.5261,-2.6276,-3.8608,-9.9042,-62.1418,52.0057,-37.5493,175.2625,113.4,0.1,4.1379
95095,24.56,101224.2344,-4375.1055,8.0415,-0.1961,4.3149,63.3636,-37.6364,-5.5102,-3.1654,-3.9848,3.4187,-2.6026,-61.758,48.6342,-37.5493,175.2625,111.8,0.19,4.1443
96096,24.56,101225.4063,-4375.2061,8.5514,-0.9414,4.0403,63.6364,-37.4545,-4.5918,-4.541,4.8927,-3.49,-13.1164,-64.1204,57.2293,-37.5493,175.2625,110.3,0.09,4.1443
97097,24.56,101224.5703,-4375.1289,8.2768,-1.3729,4.3934,63.6364,-36.9091,-1.4286,4.6163,3.0536,-3.0087,-17.354,-60.9207,57.7475,-37.5493,175.2625,108.8,0.08,4.1443
98098,24.56,101226.1094,-4375.27,9.1398,-1.0199,4.7464,63.3636,-36.4545,-0.6122,3.4218,1.8673,-2.9299,-12.1271,-62.0242,56.7082,-37.5493,175.2624,107.5,0.07,4.1443
99099,24.56,101225.4531,-4375.21,8.3553,-1.1376,4.4326,63,-37.7273,-0.6122,2.859,0.7598,4.3721,-14.3936,-61.2901,58.4189,-37.5493,175.2624,105.7,0.33,4.1508
100100,24.56,101224.625,-4375.1343,8.3553,-1.0591,4.4326,62.8182,-39,-0.9184,2.3347,-0.3992,4.3483,-13.4382,-61.3897,59.0137,-37.5493,175.2624,104,0.14,4.1443
101101,24.56,101222.4688,-4374.9365,8.316,-1.4122,4.5503,62.8182,-38.8182,-1.8367,1.9517,-1.005,4.8735,-17.2415,-60.191,58.8179,-37.5493,175.2624,102.3,0.07,4.1443
102102,24.56,101225.4063,-4374.9209,8.3553,-1.3337,4.3934,62.9091,-38.1818,-2.0408,1.4598,-2.0226,-2.1258,-16.8868,-61.2105,59.0239,-37.5493,175.2624,100.8,0.19,4.1443
103103,24.57,101227.625,-4375.4087,8.316,-1.3729,4.3934,63.0909,-38.8182,-2.6531,0.81,-3.0343,-1.9534,-17.354,-61.0356,59.1114,-37.5493,175.2624,99.2,0.1,4.1508
104104,24.56,101228.4375,-4375.4829,8.316,-1.3729,4.3542,62.7273,-38.8182,-2.449,-0.0203,-3.6629,-1.808,-17.5009,-61.2334,59.7704,-37.5493,175.2624,97.8,0.09,4.1443
105105,24.58,101226.5313,-4375.3091,8.2768,-1.3729,4.5895,62.6364,-39.8182,-2.6531,-0.768,-4.7652,-1.7121,-16.6543,-59.9385,58.6539,-37.5493,175.2624,96.3,0.09,4.1379
106106,24.56,101220.3125,-4374.7388,8.3553,-1.3337,4.5895,62.3636,-39.8182,-2.1429,-1.6926,4.0313,-4.2035,-16.2038,-60.2296,59.2475,-37.5493,175.2624,95.1,0.1,4.1379
107107,24.57,101228.2891,-4375.4692,8.2768,-1.2945,4.4326,62.0909,-39.8182,-2.0408,-2.3309,3.5232,-4.2108,-16.2797,-60.8422,60.2029,-37.5493,175.2624,93.8,0.08,4.1443
108108,24.56,101222.5781,-4374.9463,8.2376,-1.2945,4.4326,62.5455,-40.1818,-1.6327,-3.3446,2.3314,-3.9247,-16.2797,-60.7262,60.4511,-37.5493,175.2624,92.5,0.2,4.1443
109109,24.56,101219.5938,-4374.6729,8.2768,-1.5691,4.4718,62.1818,-40.6364,-1.7347,-3.9127,1.4212,-0.8247,-19.3348,-60.2055,62.0588,-37.5493,175.2624,91.3,0.02,4.1379
110110,24.56,101224.625,-4375.1343,8.2376,-1.8829,4.3934,61.8182,-40.4545,-1.0204,2.7943,0.2396,-3.3843,-23.1986,-59.8756,64.3442,-37.5493,175.2624,90.2,0.12,4.1508
111111,24.57,101226.6484,-4375.3193,8.1984,-2.1182,4.1972,61.4545,-42.9091,-1.1224,4.7935,-0.8131,-3.7651,-26.7788,-60.1673,69.2946,-37.5493,175.2624,89.2,0.23,4.1443
112112,24.56,101221.9688,-4374.8906,8.1591,-1.726,4.4326,62.6364,-42.2727,-1.3265,4.1679,-1.7562,-0.993,-21.275,-59.7578,64.0967,-37.5493,175.2624,88.4,0.12,4.1508
113113,24.57,101224.6406,-4375.1353,8.2376,-1.4122,4.1188,62.8182,-41.5455,-2.6531,3.9567,-2.9025,-0.6724,-18.9246,-62.1403,63.9145,-37.5493,175.2624,87.5,0.15,4.1379
114114,24.57,101223.9922,-4375.0757,8.5122,-1.726,4.4718,62.6364,-41.0909,-3.1633,3.2394,-4.0584,-0.3118,-21.1048,-60.6154,62.6553,-37.5493,175.2624,86.8,0.39,4.1379
115115,24.57,101225.7969,-4375.2417,8.1199,-1.8829,4.3149,61.8182,-41.4545,-2.8571,2.3708,4.7803,-0.1298,-23.5747,-59.8952,64.1887,-37.5493,175.2624,85.5,0.21,4.1443
116116,24.57,101221.1563,-4374.8164,8.1984,-1.6083,4.7072,61.4545,-41.1818,-2.551,1.4219,3.6157,0.0677,-18.8636,-58.7527,60.4517,-37.5492,175.2624,82.8,0.13,4.1443
117117,24.56,101227.9375,-4375.437,8.0807,-1.8437,4.5111,62,-40.2727,-2.2449,0.2253,2.5998,0.326,-22.2296,-58.9068,61.4431,-37.5492,175.2624,80.4,0.05,4.1443
118118,24.56,101222.75,-4374.9619,8.1199,-1.2945,4.668,61.6364,-40.3636,-3.0612,-0.3238,1.4448,0.5878,-15.4993,-59.1808,57.9663,-37.5492,175.2623,79,0.04,4.1443
119119,24.56,101225.4063,-4375.2061,8.316,-1.7652,5.0602,61.6364,-40.4545,-2.551,-1.2091,0.3874,-1.649,-19.2307,-57.2002,58.1905,-37.5492,175.2623,74.7,0.1,4.1443
120120,24.57,101226.2969,-4375.2866,7.8061,-1.7652,4.6287,62.0909,-38.9091,-2.1429,-2.2663,-0.7364,-1.1043,-20.8746,-57.6,57.9333,-37.5492,175.2623,72.2,0.09,4.1379
121121,24.56,101227.9375,-4375.437,8.3553,-2.5497,4.2365,61.6364,-39.1818,-2.6531,-2.3112,-1.8867,-0.8925,-31.0417,-59.3833,65.4502,-37.5492,175.2623,70.6,0.07,4.1379
122122,24.57,101225.1406,-4374.9463,8.2768,-1.3337,4.6287,60.0909,-40.3636,-1.0204,-3.9531,-3.1741,1.2584,-16.0736,-59.8009,61.2712,-37.5492,175.2623,68.9,0.33,4.1379
123123,24.57,101226.2969,-4375.2866,8.3553,-0.8238,4.4718,60.2727,-40.1818,-1.3265,-4.4294,-4.173,-0.8503,-10.4375,-61.4442,59.3458,-37.5492,175.2623,67.8,0.26,4.1443
124124,24.57,101219.8281,-4374.6953,7.963,-1.0591,4.1972,60.1818,-40.1818,-1.1224,-4.9187,-4.5125,-0.9198,-14.1622,-61.4708,61.7725,-37.5492,175.2623,66.4,0.24,4.1379
125125,24.57,101234.5938,-4376.0469,8.1984,-1.5691,4.5895,60.1818,-40.1818,-1.1224,4.581,4.4486,-0.6191,-18.8746,-59.3906,62.0455,-37.5492,175.2623,65,0.25,4.1508
126126,24.57,101230.2813,-4375.6519,8.2768,-1.6083,4.4718,60.2727,-39.6364,-1.3265,4.0823,3.5343,1.7993,-19.7811,-60.1371,62.7257,-37.5492,175.2623,64,0.1,4.1443
127127,24.56,101600.1719,-4409.4697,8.0807,-1.4514,4.1188,60.4545,-39.7273,-1.1224,3.3825,2.4577,-0.2731,-19.4115,-61.6119,64.4895,-37.5492,175.2623,63.9,0.05,4.1379
128128,24.57,101263.1094,-4378.6572,8.4337,-1.5691,4.8641,60.4545,-38.5455,0.6122,1.7287,1.3456,0.0061,-17.8787,-58.7837,60.4231,-37.5492,175.2623,63.9,0.17,4.1443
129129,24.57,102590.6563,-4499.5366,8.5906,-0.9414,4.3149,60.9091,-39.1818,-2.2449,2.7113,0.2689,0.8428,-12.308,-62.7923,60.0076,-37.5492,175.2623,63.8,0.14,4.1379
130130,24.58,103479.625,-4579.7744,8.1199,-0.7453,4.2757,60.4545,-38.3636,-0.102,1.5963,-0.1407,0.9198,-9.888,-61.8751,58.9362,-37.5492,175.2623,63.8,0.17,4.1443
131131,24.57,102402.7344,-4482.5024,8.5906,0.7453,6.9039,60.6364,-39.2727,-2.551,1.7097,-1.2431,1.1545,6.1615,-51.0506,41.7971,-37.5492,175.2623,63.7,0.03,4.1314
132132,24.56,101246.4609,-4377.1333,8.2376,-1.0199,4.4718,0,0,0,-2.4856,1.7753,0.5974,-12.8477,-60.8911,0,-37.5492,175.2623,63.7,0.13,4.1508
133133,24.56,101223.25,-4375.0078,8.4337,-1.2553,3.8834,60.8182,-38.2727,-2.3469,-0.8636,2.784,-4.9961,-17.9125,-64.1766,64.2591,-37.5492,175.2623,63.6,0.34,4.1443
134134,24.57,101229.4688,-4375.5776,9.1006,0.1569,2.3144,65.0909,-30.6364,-12.3469,-0.2246,-1.523,-4.9387,3.8785,-75.7001,44.7207,-37.5492,175.2623,63.6,0.06,4.1443
135135,24.57,101220.5,-4374.9248,9.2967,-0.353,1.8829,65.9091,-28.9091,-15.7143,-0.6962,-1.7239,-4.1261,-10.6197,-78.3565,53.4491,-37.5492,175.2623,63.6,0.27,4.1379
136136,24.57,101226.9766,-4375.3496,9.3752,0.5492,1.9613,66.7273,-25.4545,-18.3673,-0.1915,-2.2848,-1.0295,15.6422,-77.7429,27.1399,-37.5492,175.2623,63.6,0.04,4.1314
137137,24.57,101226.4844,-4375.3042,9.2575,0.353,2.8635,65.7273,-27.7273,-18.6735,-2.408,-3.0502,-1.5044,7.0284,-72.6896,31.9319,-37.5492,175.2623,63.5,0.12,4.1314
138138,24.57,101223.9766,-4375.0747,9.2575,1.9613,0.4315,66.2727,-24.0909,-21.7347,-1.0864,-3.7684,-1.9099,77.5926,-77.7604,-21.0952,-37.5492,175.2623,63.5,0.17,4.1379
139139,24.58,101226.0391,-4375.2632,8.9829,-0.353,0.4315,62.3636,-36.1818,-18.9796,-2.3578,-3.248,-4.6696,-39.2894,-86.4485,96.1938,-37.5492,175.2623,63.5,0.14,4.1379
140140,24.58,101218.4219,-4374.5659,9.0613,0.9414,1.4906,60.4545,-36.3636,4.4898,-3.0975,-2.0649,-4.6407,32.2756,-78.9898,50.9564,-37.5492,175.2623,63.4,0.45,4.1379
141141,24.58,101214.4297,-4374.2007,9.4536,0.1177,2.7459,57.1818,-35.7273,13.1633,3.1881,4.6971,-4.6326,2.454,-73.7896,82.453,-37.5492,175.2623,63.4,0.73,4.1314
142142,24.58,101219.7344,-4374.6865,9.2967,-0.1569,0.1961,58.5455,-34.1818,11.9388,1.8647,4.3993,-4.3828,-38.6598,-88.4524,146.5226,-37.5492,175.2623,62.3,0.87,4.1379
143143,24.58,101221.2266,-4374.8232,10.9442,0.2354,1.2553,61.4545,-28.8182,9.6939,-1.8138,-4.5626,-1.5597,10.6197,-83.344,84.4338,-37.5492,175.2623,60.9,1.49,4.1443
144144,24.58,101221.8906,-4374.8838,9.4928,1.1768,1.0199,59.1818,-27.0909,16.7347,-2.4635,1.8014,-2.7978,49.0856,-80.6839,58.0297,-37.5492,175.2622,59.9,1.35,4.1443
145145,24.57,101218.0234,-4374.5293,9.0221,-0.1961,0.863,59.6364,-30.8182,13.5714,-1.7692,1.4587,-1.6258,-12.8043,-84.3977,117.6131,-37.5492,175.2622,59.1,1.47,4.1379
146146,24.57,101216.0313,-4374.3477,9.3359,0.3138,1.5298,61.1818,-34.2727,5.4082,-4.6724,0.2107,-1.2602,11.5922,-80.5036,71.4047,-37.5492,175.2622,58.3,1.04,4.1508
147147,24.58,101217.5781,-4374.4888,9.4928,0.2746,1.5298,62,-36,-0.2041,-1.3186,-0.349,-0.5967,10.1755,-80.7013,65.0182,-37.5492,175.2622,57.4,0.32,4.1379
148148,24.58,101221.2266,-4374.8232,9.6105,-0.1569,2.6282,60,-34.7273,8.3673,3.0759,-2.1825,-1.2239,-3.4166,-74.6794,80.3631,-37.5492,175.2622,56.6,0.14,4.1379
149149,24.58,101222.3906,-4374.9292,9.2183,-0.1569,1.1376,60.4545,-35.2727,6.5306,1.8534,-2.2234,0.1385,-7.8533,-82.8991,96.2502,-37.5492,175.2622,55.6,0.25,4.1443
150150,24.57,101217.8594,-4374.5146,9.0221,0.2354,1.4122,62.0909,-34.0909,2.9592,-2.6403,-3.1791,-0.1323,9.4623,-80.9834,70.049,-37.5492,175.2622,54.7,0.07,4.1443
151151,24.58,101222.0547,-4374.8984,9.6497,-0.3923,2.1182,59.4545,-35.9091,7.9592,1.96,4.5508,-0.6733,-10.4915,-77.4154,91.8027,-37.5492,175.2622,54.7,0.1,4.1443
152152,24.58,101221.7188,-4374.8677,9.2183,-0.1961,1.8437,59.9091,-35.0909,8.3673,-0.2274,4.561,-0.8242,-6.0725,-78.6279,89.9721,-37.5492,175.2622,54.7,0.09,4.1314
153153,24.59,101222.9375,-4374.9795,9.2575,0.3138,2.3144,60.8182,-33.6364,7.3469,-0.4704,3.3924,0.4623,7.7218,-75.8405,70.4292,-37.5492,175.2622,54.6,0.07,4.1508
154154,24.58,101219.5859,-4374.6729,9.8459,0.1177,2.1182,61.0909,-38.0909,-2.8571,-3.857,1.8575,0.7266,3.1798,-77.8403,64.9237,-37.5492,175.2622,54.6,0.2,4.1379
155155,24.58,101221.0625,-4374.8076,9.5713,0.0785,2.3144,61.5455,-35.7273,1.9388,1.4792,1.56,1.2162,1.9415,-76.3991,68.9522,-37.5492,175.2622,54.6,0.46,4.1379
156156,24.59,101220.2656,-4374.7349,8.9044,-0.5099,0.1569,58.8182,-40,2.8571,-1.9781,1.6234,-1.0635,-72.8973,-86.571,165.7182,-37.5492,175.2622,54.6,0.46,4.1508
157157,24.58,101218.0938,-4374.5356,8.7868,-3.6873,4.0796,46.7273,-51.3636,8.1633,-0.5849,-3.4079,4.563,-42.1087,-57.9605,106.2965,-37.5492,175.2622,54.7,0.61,4.1443
158158,24.59,101218.9375,-4374.6138,9.7674,-1.4514,0.9414,57.5455,-45.4545,-14.4898,-4.1007,-2.1391,0.3134,-57.0306,-79.9561,118.1616,-37.5492,175.2622,54.2,0.24,4.1443
159159,24.59,101216.7813,-4374.4155,10.042,-0.0392,0.3138,62.0909,-37.8182,-5.5102,2.9037,-2.534,3.0435,-7.125,-88.1962,85.9118,-37.5492,175.2622,53.7,0.19,4.1443
160160,24.59,101220.4375,-4374.7505,9.0613,0.9022,0.0392,65,-32.3636,-16.9388,-3.523,-3.1417,-4.857,87.5104,-84.3086,-21.52,-37.5492,175.2622,53.1,0.11,4.1379
161161,24.58,101211.2969,-4373.9136,9.5321,0.0392,0.6276,63.8182,-29.5455,-26.9388,4.4786,-4.1922,4.7041,3.5763,-86.2255,40.2324,-37.5492,175.2622,52,0.32,4.1443
162162,24.59,101212.6406,-4374.0366,9.6497,-0.6669,1.0983,64.7273,-27.2727,-27.3469,2.5003,3.9526,4.6146,-31.2637,-82.4153,64.7547,-37.5492,175.2622,52,0.26,4.1379
163163,24.58,101210.1328,-4373.8071,9.4928,0.2354,0.5884,65,-21.4545,-30.102,-1.4842,3.4955,-3.8431,21.8014,-86.1807,12.2763,-37.5492,175.2622,51.9,0.07,4.1379
164164,24.58,101209.4688,-4373.7456,9.5321,-0.5884,0.8238,64.9091,-19.6364,-31.0204,1.2985,2.0511,-4.2448,-35.5377,-83.9378,58.7878,-37.5492,175.2622,51.9,0.09,4.1314
165165,24.59,101212.4922,-4374.0234,9.5713,-0.2746,0.7845,65.1818,-18.9091,-30.5102,0.5357,0.8005,-3.9764,-19.29,-85.0367,44.8171,-37.5492,175.2622,51.8,0.06,4.1443
166166,24.59,101216.4531,-4374.3857,9.4144,-0.5492,1.0199,65,-18.4545,-30.8163,0.9907,0.7165,-3.7681,-28.3008,-82.9856,49.6852,-37.5492,175.2622,51.8,0.01,4.1508
167167,24.59,101209.8203,-4373.7788,9.2967,-0.1177,0.5884,64.5455,-18.6364,-32.2449,-0.8346,-0.2126,-2.8899,-11.3099,-86.307,37.4947,-37.5492,175.2622,51.8,0.03,4.1314
168168,24.59,101216.5234,-4374.3921,9.4144,-0.1961,0.4707,64.4545,-19.4545,-32.7551,-2.3016,-0.8456,-2.5322,-22.6199,-86.8995,49.3827,-37.5492,175.2622,51.8,0.05,4.1508
169169,24.61,101220.5391,-4374.7598,9.6497,-0.0392,0.1177,64.3636,-22.7273,-30.9184,-4.594,-2.5662,-2.7384,-18.4349,-89.2635,53.7594,-37.5492,175.2622,51.8,0.02,4.1443
170170,24.59,101219.2891,-4374.6455,9.6497,0.0785,0.9414,64.0909,-31.6364,-23.7755,-3.3329,-2.7336,-2.7611,4.7636,-84.4086,42.3333,-37.5492,175.2622,51.8,0.13,4.1379
171171,24.6,101220.8281,-4374.7861,9.6497,-0.7061,0.4707,63.0909,-35.2727,-20.7143,3.196,-3.178,-2.819,-56.3099,-84.9743,108.4292,-37.5492,175.2622,51.1,0.16,4.1379
172172,24.6,101218.3438,-4374.5586,9.2183,1.1768,2.0398,65.8182,-25.1818,-23.5714,-2.8711,-4.8944,-0.0744,29.9816,-75.6696,11.7429,-37.5492,175.2622,50.4,0.14,4.1508
173173,24.6,101216.0234,-4374.3462,9.1398,-0.1569,0.2354,64.2727,-24.9091,-29.6939,-1.2388,-4.2188,-0.5066,-33.6901,-88.2273,70.9108,-37.5492,175.2622,49.7,0.11,4.1379
174174,24.59,101214.2969,-4374.1885,9.3359,0.5492,1.0983,65.7273,-28,-21.6327,2.7266,3.4424,0.2663,26.5651,-82.5067,20.9374,-37.5492,175.2622,49.2,0.02,4.1379
175175,24.6,101214.5313,-4374.21,10.7873,-0.4315,1.7652,65.3636,-21,-28.9796,0.3867,2.5433,0.4023,-13.7363,-80.438,38.9905,-37.5492,175.2622,49.2,0.11,4.1379
176176,24.59,101217.4688,-4374.479,9.9243,0,0.9807,65.2727,-11.4545,-31.3265,-2.374,1.7572,0.8181,0,-84.3567,16.9458,-37.5492,175.2622,49.1,0.1,4.1314
177177,24.61,101216.8906,-4374.4258,9.5713,-0.353,0.4707,65.2727,-8,-30.7143,0.7248,0.8344,0.6046,-36.8699,-86.4821,46.2848,-37.5492,175.2622,49.1,0.16,4.1379
178178,24.59,101213.3203,-4374.0986,9.5713,0.353,1.0199,64.8182,-4.3636,-30.9184,-3.3025,-0.1436,1.2952,19.0935,-83.5665,-9.0248,-37.5492,175.2622,49.1,0.05,4.1379
179179,24.61,101218.5469,-4374.5781,9.7282,0.353,0.6276,63.1818,8.8182,-24.6939,4.9724,-1.4989,3.0438,29.3577,-85.7665,-42.2146,-37.5492,175.2622,49.1,0.07,4.1314
180180,24.61,101220.0547,-4374.7153,9.4536,-0.5884,0.1961,64.2727,-0.8182,-29.898,-4.771,-1.7793,1.281,-71.565,-86.2463,65.7933,-37.5492,175.2622,49.1,0.05,4.1314
181181,24.6,101212.5469,-4374.1826,9.2967,-0.4707,0.2354,64.2727,-11.2727,-33.4694,4.49,-2.6496,2.3156,-63.4349,-86.76,76.3254,-37.5492,175.2622,49.1,0.14,4.1379
182182,24.6,101216.3594,-4374.377,9.4144,0.1177,0.863,65.2727,-13.7273,-29.898,0.0052,-4.6215,3.1768,7.7652,-84.7143,14.3568,-37.5492,175.2622,49.1,0.23,4.1379
183183,24.6,101215.5469,-4374.3032,8.9829,-0.7453,0.863,64.7273,-18,-31.2245,-1.3282,4.6595,2.6776,-40.8151,-82.7657,59.6546,-37.5492,175.2622,49.1,0.06,4.1314
184184,24.61,101216.7188,-4374.4102,9.4144,1.6475,1.1768,65,-6.3636,-30.2041,4.1386,3.1014,4.1446,54.4623,-77.8629,-30.1875,-37.5492,175.2622,49.1,0.03,4.1379
185185,24.61,101218.3828,-4374.5625,9.0221,0.5492,1.216,63.8182,8.4545,-21.3265,-3.2635,1.9989,4.7618,24.3045,-81.5875,-33.2701,-37.5492,175.2622,49.1,0.2,4.1379
186186,24.61,101217.7188,-4374.502,10.1205,-0.4315,1.1768,63.6364,12.8182,-11.6327,4.6989,1.0559,4.9381,-20.1363,-82.9399,-19.2152,-37.5492,175.2622,49.1,0.26,4.1379
187187,24.6,101212.875,-4374.0576,9.6497,-0.8238,0.8238,63.8182,12.8182,-9.1837,1.9375,0.2517,-4.8854,-45,-83.1162,-6.3498,-37.5492,175.2622,49.1,0.06,4.1443
188188,24.6,101220.1719,-4374.7261,9.0613,-0.7453,0.9414,65,7.4545,-19.5918,-3.496,-0.8748,4.5661,-38.3675,-82.4515,12.5582,-37.5492,175.2622,49,0.06,4.1314
189189,24.62,101223.4219,-4375.0239,9.5713,-0.863,0.353,64.6364,6.3636,-21.8367,4.2799,-1.1561,4.6068,-67.751,-84.436,41.1667,-37.5492,175.2622,49,0.04,4.1314
190190,24.62,101219.7813,-4374.6904,9.2183,-1.0199,1.0983,65.8182,6.1818,-17.0408,-3.7171,-3.3756,4.671,-42.8789,-80.7648,14.6435,-37.5492,175.2622,49,0,4.1443
191191,24.61,101219.5469,-4374.6694,9.4144,-0.2746,0.5099,64.1818,7.9091,-20.6122,-0.5253,-3.0369,-4.4673,-28.3008,-86.4796,6.2131,-37.5492,175.2622,49,0.02,4.1314
192192,24.61,101218.5469,-4374.5781,9.5713,-0.5884,0.863,64.2727,11.0909,-12.3469,-0.3855,-4.5542,-4.1785,-34.2869,-83.7721,-5.408,-37.5492,175.2622,49,0.03,4.1379
193193,24.61,101220.5547,-4374.7617,9.6105,-1.3337,0.6276,64.5455,10.5455,-13.7755,-2.8454,4.6982,-4.1168,-64.7989,-81.2803,17.6813,-37.5492,175.2622,49,0.02,4.1379
194194,24.61,101218.2188,-4374.5474,9.3359,-0.4707,0.5492,63.4545,12.8182,-11.7347,-1.3277,3.6336,-2.9393,-40.6013,-85.5699,-5.416,-37.5492,175.2622,49,0.11,4.1443
195195,24.62,101220.9375,-4374.7964,9.8459,-0.4315,1.7652,63.1818,13.3636,-7.449,-3.6739,1.7109,-2.8437,-13.7363,-79.5431,-27.3221,-37.5492,175.2622,49,0.03,4.1443
196196,24.62,101220.2734,-4374.7358,9.689,0.1569,1.0983,61.5455,16.1818,-1.9388,-0.0319,1.1776,-0.9826,8.1301,-83.4674,-67.8425,-37.5492,175.2622,49,0.03,4.1443
197197,24.62,101220.9375,-4374.7964,9.2183,-0.0392,0.9022,62.7273,14.5455,-4.3878,1.3932,-0.106,-1.6046,-2.4896,-84.4049,-52.2419,-37.5492,175.2622,49,0.02,4.1508
198198,24.62,101220.125,-4374.7222,9.5321,-0.3923,1.3337,62.9091,14.1818,-1.6327,-1.918,-1.6475,-1.2011,-16.3895,-81.7023,-42.0202,-37.5492,175.2622,49,0.02,4.1508
199199,24.63,101217.9844,-4374.5259,9.6105,-0.4315,0.8238,63.0909,13.1818,-3.5714,1.8778,-1.6554,-0.8984,-27.646,-84.4732,-33.1971,-37.5492,175.2622,49,0.05,4.125
200200,24.62,101218.9453,-4374.6143,4.2365,0.7061,1.2553,63.1818,13.8182,-13.0612,4.5769,-1.9027,-0.5281,29.3577,-71.2243,-36.7539,-37.5492,175.2622,49,0.06,4.1379
201201,24.62,101217.4531,-4374.5391,9.4144,-1.4122,0.3923,65.0909,7,-18.3673,-3.8187,-2.3793,-1.8784,-74.4759,-81.1513,36.3089,-37.5492,175.2622,49,0.09,4.1443
202202,24.63,101214.5,-4374.2075,9.2967,-0.2746,1.3337,65.4545,-5.9091,-28.8776,3.0476,-2.5699,-2.3511,-11.6336,-81.6672,17.7408,-37.5492,175.2622,49,0.07,4.1443
203203,24.63,101220.1406,-4374.7236,10.0028,-2.2751,0.8238,61.5455,-33.6364,-27.7551,-4.9526,-1.2202,-4.903,-70.0963,-76.4013,100.6868,-37.5492,175.2622,49,0.1,4.1508
204204,24.62,101219.2969,-4374.6465,9.4144,0.6276,0.5099,63.0909,-35.6364,-16.7347,2.1191,-0.4592,-2.6768,50.9061,-85.0905,12.3076,-37.5492,175.2622,49,0.34,4.1379
205205,24.62,101218.1406,-4374.54,9.4144,-1.216,-1.0591,61.4545,-39.4545,-11.3265,-3.0384,-0.9051,-3.605,-131.0548,-80.2801,-146.5358,-37.5492,175.2622,49,0.15,4.1314
206206,24.63,101221.3047,-4374.8306,7.0608,1.9613,-0.1177,66.1818,-23.3636,-25.4082,-2.6272,-2.0238,0.6008,93.4336,-74.4493,-34.6338,-37.5492,175.2622,48.9,2.03,4.1379
207207,24.63,101220.3125,-4374.7388,8.5514,-2.942,0.7061,59.5455,-32.6364,-33.5714,3.0539,0.4724,-3.3538,-76.5043,-70.5159,93.7952,-37.5492,175.2622,48.6,1.98,4.1443
208208,24.64,101220.7031,-4374.7749,7.8453,-3.2558,4.3149,52.8182,-49.0909,2.7551,-1.5774,2.3468,2.2057,-37.0362,-55.433,84.2061,-37.5492,175.2622,48.2,2.33,4.1314
209209,24.63,101224.625,-4375.1343,8.2376,-3.9227,5.8448,49.7273,-51.1818,1.0204,-3.3275,3.4274,1.0099,-33.8672,-49.4859,76.6159,-37.5492,175.2621,47.9,1.83,4.1379
210210,24.63,101223.8438,-4375.063,10.3166,-3.295,3.8442,50.9091,-49.2727,2.551,-2.3254,0.2744,0.7691,-40.6013,-63.8594,102.7597,-37.5492,175.2621,47.7,2.52,4.1314
211211,24.63,101220.8594,-4374.7896,7.2177,-0.1177,-0.0785,59.4545,-31.6364,12.449,3.485,-3.9773,2.3781,-123.6901,-88.8774,-123.1817,-37.5492,175.2621,47.7,2.65,4.1379
212212,24.64,101223.3594,-4375.0181,8.1199,-1.1376,1.8044,52.7273,-35.5455,21.2245,4.1165,1.5056,1.3802,-32.2288,-75.2811,139.9465,-37.5492,175.2621,47.4,3.08,4.1314
213213,24.64,101224.7031,-4375.1411,10.8265,-0.3923,1.4514,58,-25.1818,21.1224,-1.4418,3.228,2.8369,-15.124,-82.094,134.8907,-37.5492,175.2621,47.1,3,4.1508
214214,24.64,101224.6875,-4375.1396,7.2177,-0.2354,1.8044,54.9091,-22.9091,26.0204,-4.9156,1.5699,1.9355,-7.4314,-75.8496,126.7849,-37.5492,175.2621,46.7,2.86,4.1508
215215,24.64,101226.0313,-4375.2632,10.9834,-1.5691,2.8635,57,-14.2727,24.6939,-4.6878,2.9416,-0.0689,-28.7203,-73.4434,176.6425,-37.5492,175.2621,46.2,2.93,4.1443
216216,24.64,101224.7031,-4375.1411,10.2774,-1.3729,0.6276,62.4545,-1.6364,14.2857,-3.1218,-4.3576,0.2181,-65.4328,-81.6439,-82.0134,-37.5492,175.2621,45.8,3.06,4.125
217217,24.64,101221.0469,-4374.8062,7.1,0.0392,-2.7066,62.2727,5.7273,11.0204,3.6734,-4.4178,1.9485,179.1697,-69.1304,10.2962,-37.5493,175.2621,45.6,2.71,4.1379
218218,24.64,101217.5625,-4374.4868,8.8652,-0.4315,0.1177,60.9091,6.8182,15.3061,1.3832,2.8744,1.8857,-74.7449,-87.1119,-71.2663,-37.5493,175.2621,45.2,2.77,4.1379
219219,24.64,101215.7344,-4374.3198,10.5127,-1.5691,3.2166,60.6364,7.1818,15.7143,-0.4812,1.5705,1.7465,-26.0033,-71.1997,-55.5564,-37.5493,175.2621,44.9,2.57,4.1443
220220,24.64,101221.2031,-4374.8203,8.4729,-0.6276,2.1182,56.8182,7.7273,22.449,-0.6805,-0.8838,4.0241,-16.5044,-75.3859,-107.5793,-37.5493,175.2621,44.5,3.02,4.1379
221221,24.64,101221.5625,-4374.8535,10.2774,-1.8437,4.2757,55.3636,-3.5455,27.8571,-4.5328,-2.0394,3.8672,-23.3254,-65.6267,-102.5582,-37.5493,175.2621,44.2,2.46,4.1443
222222,24.65,101223.8984,-4375.0679,10.1989,-0.9022,0.0392,57.7273,-5.8182,25.102,-2.8491,-1.4423,-4.3433,-87.5104,-84.9399,-94.1117,-37.5493,175.2621,43.9,2.62,4.1314
223223,24.65,101220.9063,-4374.7935,6.5901,-0.1961,-0.863,58.4545,-10.9091,23.7755,1.701,-2.0415,-3.2553,-167.1957,-82.3514,-29.2861,-37.5493,175.2621,43.6,2.83,4.1379
224224,24.65,101227.7656,-4375.4214,8.0807,-2.1575,1.2945,57.0909,-15.0909,25.2041,0.794,-3.8492,-3.6818,-59.0362,-72.7054,-119.2779,-37.5493,175.2621,43.3,2.86,4.1443
225225,24.65,101226.7656,-4375.3301,10.8265,-0.6669,1.5691,58.1818,-7.6364,24.3878,-4.6424,-4.4008,-3.2539,-23.0255,-81.0509,-171.1198,-37.5493,175.2621,42.9,2.76,4.1314
226226,24.66,101226.2891,-4375.2861,7.1785,-0.6669,1.8044,57.7273,-3.2727,24.4898,-0.0221,4.3801,-3.5342,-20.2826,-74.9982,-146.9878,-37.5493,175.2622,42.7,2.82,4.1443
227227,24.65,101224.7813,-4375.1479,12.121,0.3138,4.5111,58.6364,1.3636,22.1429,0.825,3.9056,-2.1699,3.9794,-69.5411,148.64,-37.5494,175.2622,42.5,2.85,4.1443
228228,24.65,101221.7969,-4374.875,8.7083,-1.4514,0.2354,61.3636,-2,17.551,-1.3967,4.1275,-3.8152,-80.789,-80.4164,-72.0784,-37.5494,175.2622,42.3,2.76,4.1314
229229,24.66,101223.6406,-4375.0435,8.6691,-1.6083,2.1182,60.5455,0.3636,18.9796,-3.9989,2.3376,-3.939,-37.2079,-72.9444,-73.3599,-37.5494,175.2622,42,2.49,4.1314
230230,24.66,101223.7969,-4375.0581,9.1006,-1.2945,2.3144,59.3636,7.4545,17.9592,1.3213,0.9893,-3.1162,-29.2192,-73.7546,-71.6946,-37.5494,175.2622,41.8,2.02,4.1379
231231,24.66,101224.625,-4375.1343,8.7083,-1.2553,0.1177,63.8182,7.4545,5.6122,-2.075,3.7741,-3.3501,-84.6442,-81.7622,-21.4764,-37.5494,175.2622,41.6,2.42,4.1314
232232,24.66,101225.3125,-4375.1973,7.8061,-2.3144,1.1376,55.5455,-4.2727,28.0612,0.6287,-3.8504,4.5922,-63.8247,-71.7184,-85.0221,-37.5494,175.2622,41.2,1.5,4.1314
233233,24.66,101218.4922,-4374.5728,10.9442,-2.1182,0.8238,65.4545,7.6364,-6.2245,-3.0226,3.9451,4.3837,-68.7495,-78.2682,7.683,-37.5494,175.2622,41,1.83,4.1314
234234,24.66,101216.3594,-4374.542,9.2967,1.9613,0.5884,61.6364,16.4545,-9.1837,-0.175,2.5966,-1.649,73.3008,-77.5784,-88.1211,-37.5494,175.2622,40.8,1.69,4.1508
235235,24.65,101218.1406,-4374.54,7.4531,-2.7066,-1.4514,64,-2.2727,12.1429,-3.4424,-0.0567,-3.6276,-118.2016,-67.6046,-22.9287,-37.5494,175.2622,40.5,1.57,4.1379
236236,24.67,101224,-4375.0767,10.7873,-1.0983,2.0006,60.9091,10.2727,11.9388,-2.6597,-1.2596,0.505,-28.7676,-78.0543,-63.9652,-37.5494,175.2622,40.2,1.75,4.1443
237237,24.67,101225.9844,-4375.2583,7.7276,-0.3138,0.9414,59.9091,7.3636,15.7143,-2.1081,-3.6411,-0.2436,-18.4349,-82.6823,-112.0658,-37.5494,175.2622,40.1,2.14,4.1379
238238,24.67,101222.6719,-4374.9551,11.5326,-1.2553,2.5105,61.1818,3.2727,16.1224,-0.3842,-3.9039,-0.2546,-26.5651,-76.3212,-79.4996,-37.5494,175.2622,39.9,1.77,4.1314
239239,24.67,101219.8594,-4374.6978,8.1984,-1.5691,-0.2746,62.6364,4.1818,11.4286,1.0185,-4.2202,-1.0142,-99.9262,-79.0046,-30.449,-37.5494,175.2622,39.7,2.74,4.1443
240240,24.67,101223.0078,-4374.9863,9.4144,-1.5298,2.6674,61.2727,9.8182,11.2245,0.2752,4.997,1.0715,-29.8355,-71.9117,-44.3757,-37.5494,175.2622,39.6,2.65,4.1314
241241,24.67,101221.7266,-4374.8691,9.4144,-0.8238,1.216,59.7273,6.4545,17.551,3.6878,1.7494,0.14,-34.1145,-81.1326,-95.9151,-37.5494,175.2623,39.6,2.18,4.1379
242242,24.67,101221.5156,-4374.8496,10.7481,-0.8238,6.0409,56.8182,6.1818,23.3673,-2.4567,-0.2103,2.833,-7.7652,-60.4361,-47.1138,-37.5495,175.2623,39.5,2.47,4.1379
243243,24.68,101223.0781,-4374.9922,7.4531,-0.1569,-1.5298,62.3636,1.7273,14.4898,3.461,1.8448,1.3613,-174.144,-78.3412,0.5111,-37.5495,175.2623,39.4,2,4.1379
244244,24.67,101220.1875,-4374.728,9.7674,-0.5884,2.8635,60.4545,7.0909,14.2857,3.255,-0.1103,2.4102,-11.6115,-73.3377,-61.6659,-37.5495,175.2623,39.2,2.46,4.1314
245245,24.67,101221.3984,-4374.8389,8.7868,-0.3138,1.0199,60.6364,11.0909,11.5306,-2.5591,-1.9143,1.9632,-17.1027,-83.0758,-91.6064,-37.5495,175.2623,39.1,2.25,4.1443
246246,24.68,101216.9375,-4374.4302,10.4343,-1.0591,1.8044,61.9091,11.9091,6.4286,0.9901,-1.5492,2.0464,-30.4111,-78.6614,-46.9217,-37.5495,175.2623,38.8,2.38,4.1379
247247,24.67,101218.0313,-4374.5303,8.0022,-0.7845,-1.0983,62.6364,6.3636,10.4082,-1.0773,-2.5366,1.8825,-144.4623,-80.4259,-2.2259,-37.5495,175.2623,38.6,1.86,4.1379
248248,24.68,101221.7656,-4374.8726,9.4536,-0.6669,1.3337,58.9091,10.7273,14.5918,-2.9096,4.1835,3.2629,-26.5651,-81.0365,-86.3613,-37.5495,175.2623,38.5,1.67,4.1443
249249,24.68,101222.4063,-4374.9312,9.5713,0,2.079,62.4545,8.1818,8.3673,0.911,4.957,2.12,0,-77.745,-58.1636,-37.5495,175.2623,38.3,1.88,4.1314
250250,24.69,101224.9688,-4375.1655,9.1006,-2.589,0.7845,66.8182,3.8182,-10,4.2916,-3.3355,-0.6106,-73.1416,-73.445,18.4808,-37.5495,175.2623,38.2,1.85,4.1314
251251,24.68,101219.2813,-4374.6445,10.0028,-0.9022,-0.3923,63,-6.2727,-34.0816,-3.7255,3.2808,2.4202,-113.4986,-84.3829,114.4644,-37.5495,175.2624,38,1.29,4.1379
252252,24.7,101224.5078,-4375.123,9.4928,-1.6083,0.0785,61,-30.3636,-32.8571,-2.5123,0.9366,1.4878,-87.2073,-80.373,117.8494,-37.5495,175.2624,38,0.54,4.1443
253253,24.69,101224.4844,-4375.1216,8.6299,-0.1569,-0.4707,62.3636,-36.1818,-6.9388,2.9092,2.5322,-4.7096,-161.565,-86.7094,-114.1625,-37.5495,175.2624,37.8,0.2,4.1314
254254,24.69,101229.2813,-4375.3325,9.9243,-0.2746,0.4315,62,-30.7273,6.5306,-2.6168,-0.5499,-3.6406,-32.4712,-87.0499,129.9638,-37.5495,175.2624,37.6,0.34,4.1379
255255,24.69,101223,-4374.9849,9.4928,0,0.5884,61.2727,-29.7273,8.6735,4.6256,-1.5259,-3.7469,0,-86.4531,99.2966,-37.5495,175.2624,37.6,0.22,4.1379
256256,24.7,101227.3281,-4375.3809,9.4928,-0.0785,0.5884,61.7273,-30.4545,7.7551,4.9954,-2.8979,-3.3054,-7.5946,-86.4218,105.0417,-37.5495,175.2624,37.5,0.09,4.1379
257257,24.69,101222.8281,-4374.9692,9.2183,-0.3138,1.6083,63.1818,-31.6364,0.7143,0.3795,-3.6011,-2.2188,-11.0409,-79.9205,81.8953,-37.5495,175.2624,37.5,0.05,4.1379
258258,24.7,101224.0078,-4375.0771,9.2183,1.6867,0.5099,64.2727,-19.0909,-30.7143,4.001,-2.2645,-0.0189,73.1786,-79.178,-31.6407,-37.5495,175.2624,37.5,0.18,4.125
259259,24.7,101225.8281,-4375.2441,9.689,-1.2553,1.4514,65.5454,-3.8182,-26.7347,2.4341,-4.9795,-2.9332,-40.8554,-78.7975,34.079,-37.5495,175.2624,37.5,0.72,4.1379
260260,24.7,101226.3281,-4375.29,9.2575,-0.4707,1.3729,61.1818,14.6364,0.102,-0.3934,0.4239,0.8247,-18.9246,-81.0897,-44.6058,-37.5495,175.2624,37.3,0.62,4.1314
261261,24.7,101224.3594,-4375.1899,8.2768,-1.6083,2.5105,59.7273,11.5455,12.3469,-4.3214,0.4985,3.4053,-32.6446,-70.1899,-45.1087,-37.5495,175.2624,37.2,0.29,4.1379
262262,24.71,101223.7422,-4375.0527,9.2183,-1.1376,2.0398,61,12.7273,9.0816,-4.3229,-0.3131,2.9019,-29.1481,-75.7826,-49.4346,-37.5495,175.2624,37,0.86,4.1379
263263,24.7,101227.3438,-4375.3833,8.9044,0.863,-1.216,61.2727,17.7273,-18.4694,-0.0872,0.7669,2.9225,144.6375,-80.4935,165.7675,-37.5495,175.2624,36.9,0.93,4.1314
264264,24.71,101214.2891,-4374.188,5.9624,-4.0011,1.1376,66.7273,-18.4545,-32.6531,-2.5157,0.7546,-2.191,-74.1288,-55.0985,49.6742,-37.5495,175.2624,36.7,0.75,4.1379
265265,24.71,101227.2266,-4375.3726,9.6497,0.6276,1.0983,65.6364,14.2727,-30.4082,-0.1417,4.9986,-4.0048,29.7449,-82.5315,-44.7828,-37.5495,175.2624,36.6,0.96,4.125
266266,24.71,101224.2656,-4375.1016,7.8061,-2.2751,0,69.5455,10.3636,-7.2449,4.3433,-3.879,-4.2483,-90,-73.7508,13.839,-37.5495,175.2624,36.5,0.69,4.1379
267267,24.72,101231.0781,-4375.7246,11.0227,-0.6669,-0.0392,60.1818,-1.4545,-8.0612,-4.0871,4.6314,-3.4141,-93.3665,-86.532,77.8193,-37.5495,175.2624,36.4,0.49,4.1379
268268,24.72,101234.3906,-4376.0283,9.4144,1.0591,1.2945,56,11.8182,0,4.456,2.2295,-2.2153,39.2894,-79.926,-75.1388,-37.5495,175.2624,36.3,0.64,4.1443
269269,24.71,101233.0469,-4375.9053,9.4928,0.0392,1.0591,56.4545,10.6364,-1.1224,-0.7297,0.9925,-2.2741,2.1211,-83.6295,-56.7816,-37.5495,175.2624,36.2,0.48,4.1443
270270,24.73,101233.2969,-4375.9282,9.5321,0.5884,1.2553,56.4545,11.5455,0.102,3.0105,-0.1953,-2.0504,25.1148,-81.7251,-72.9922,-37.5495,175.2624,36.1,0.36,4.1443
271271,24.72,101233.5625,-4375.9526,9.5321,0.1569,0.9022,58,5.7273,-3.5714,2.5945,-0.0075,-2.1339,9.8658,-84.5124,-37.7691,-37.5495,175.2624,36,0.27,4.1379
272272,24.72,101230.0781,-4375.6333,9.5321,-0.0785,0.6276,58.7273,3.7273,-5.4082,1.8243,-0.8251,-1.9768,-7.125,-86.2036,-17.3277,-37.5495,175.2624,35.8,0.16,4.125
273273,24.73,101235.625,-4376.1411,9.3752,0.2354,0.9022,58,6.3636,-3.3673,-3.2307,-2.5601,-1.7843,14.6209,-84.3203,-43.5019,-37.5495,175.2624,35.8,0.11,4.1443
274274,24.72,101231.2578,-4375.7417,10.0812,1.6867,2.079,58.4545,4.2727,-4.7959,-3.9117,-3.3581,-1.5411,39.0531,-75.1277,-21.6136,-37.5495,175.2624,35.8,0.03,4.125
275275,24.72,101229.5859,-4375.5879,9.2967,-1.2945,-0.4707,76.2727,-28.6364,-60.4082,0.0982,-3.0664,-4.82,-109.9831,-81.5723,127.355,-37.5495,175.2624,35.8,0.35,4.1314
276276,24.73,101229.3203,-4375.5645,9.4144,-1.5691,0.7061,68.8182,-19.2727,-37.0408,-0.9664,-4.9188,-4.2115,-65.7723,-79.6427,76.4635,-37.5495,175.2624,35.7,0.22,4.1379
277277,24.73,101228.4922,-4375.4883,9.2967,-2.2359,0.6276,67.7273,-17.4545,-32.6531,-1.8259,4.8521,-3.8617,-74.3205,-75.9744,76.5127,-37.5495,175.2624,35.7,0.13,4.1379
278278,24.73,101225.7031,-4375.2329,9.4144,-1.6083,0.7061,67.5455,-17.0909,-31.8367,-2.8477,2.9833,-3.658,-66.2974,-79.4317,75.0986,-37.5495,175.2624,35.6,0.07,4.1379
279279,24.73,101227.6641,-4375.4121,9.2967,-1.6475,0.0392,68.1818,-18.6364,-33.9796,-3.456,2.0036,-3.4221,-88.6361,-79.9479,99.3203,-37.5495,175.2624,35.6,0.02,4.1314
280280,24.73,101229.0234,-4375.5366,9.2967,-2.3928,0.5099,67.0909,-16.7273,-30.3061,-4.4723,0.9543,-3.2996,-77.9694,-75.2561,77.4702,-37.5495,175.2624,35.6,0.02,4.1379
281281,24.73,101229.3438,-4375.5664,9.2967,-1.3729,0.6669,66.7273,-15.9091,-28.4694,4.6191,-0.2338,-2.9742,-64.0935,-80.6765,74.6084,-37.5495,175.2624,35.6,0.01,4.125
282282,24.74,101231.25,-4375.7407,9.2183,-2.079,0.7845,67.1818,-16.8182,-30.6122,4.1001,-1.2272,-2.6515,-69.3256,-76.4471,72.4232,-37.5495,175.2624,35.6,0.04,4.1379
283283,24.73,101230.8438,-4375.7031,9.2183,-0.7845,-0.2746,67.4545,-17.6364,-31.6327,3.4951,-2.1913,-2.3011,-109.29,-84.8476,131.0535,-37.5495,175.2624,35.6,0.14,4.1379
284284,24.75,101228.7969,-4375.5156,9.2967,-1.2553,0,68.3636,-20.0909,-34.2857,2.9517,-3.2208,-1.5499,-90,-82.3104,107.4277,-37.5495,175.2624,35.5,0.03,4.1443
285285,24.74,101228.5938,-4375.4976,9.4144,-2.2359,-1.1768,71.4545,-24.8182,-44.2857,2.147,-3.7703,-0.6929,-117.7585,-74.9766,129.2941,-37.5495,175.2624,35.5,0.03,4.125
286286,24.75,101229.2734,-4375.5596,9.3752,-1.8829,-0.863,71.3636,-24.3636,-43.3673,1.3195,-4.8374,-0.4853,-114.6236,-77.5419,129.2016,-37.5495,175.2624,35.5,0.03,4.1379
287287,24.75,101229.7891,-4375.6069,9.3752,-1.6475,-0.7453,68.4545,-20.5455,-34.0816,-0.1359,3.8685,-0.3531,-114.3411,-79.083,130.3834,-37.5495,175.2624,35.5,0.01,4.1314
288288,24.75,101228.2969,-4375.4092,9.3359,-1.8044,0,73.6364,-27.8182,-50.9184,-0.0999,3.3298,-0.277,-90,-79.0609,104.6799,-37.5495,175.2624,35.5,0.01,4.125
289289,24.75,101229.2734,-4375.5596,9.2183,-1.6867,-0.8238,68.3636,-20.7273,-31.9388,-0.9485,2.5294,0.8323,-116.0296,-78.49,133.0979,-37.5495,175.2624,35.5,0.05,4.1443
290290,24.75,101233.9375,-4375.9868,9.4144,0.2746,0.7453,60.4545,-1,-8.9796,-1.7828,1.0965,2.6386,20.2249,-85.1775,-8.9054,-37.5495,175.2624,35.5,0.14,4.1379
291291,24.76,101233.4922,-4375.9458,9.5321,-0.5099,0.353,60,0.4545,-7.8571,-2.4613,-0.2647,2.9612,-55.3048,-86.2772,35.3829,-37.5495,175.2624,35.5,0.18,4.1443
292292,24.76,101232.8438,-4375.8862,9.4536,-0.1961,0.9807,59.6364,2.5455,-6.6327,-2.9186,-1.3509,2.1547,-11.3099,-83.9612,-5.1592,-37.5495,175.2624,35.5,0.02,4.125
293293,24.77,101232.75,-4375.8784,9.3359,-0.4315,1.4906,59.4545,3.0909,-5.9184,-3.6928,-2.7542,2.233,-16.1443,-80.5626,-4.6688,-37.5495,175.2624,35.5,0.05,4.1379
294294,24.76,101228.5313,-4375.4922,9.4536,-0.4707,1.216,59.5455,3.5455,-5.4082,-4.3116,-3.5659,2.9858,-21.1613,-82.1467,-5.3718,-37.5495,175.2624,35.5,0.03,4.1314
295295,24.77,101230.0938,-4375.6353,9.3752,-0.353,1.0591,58.9091,3.9091,-5.3061,4.996,-4.5331,3.4677,-18.4349,-83.2091,-8.7506,-37.5495,175.2624,35.5,0,4.125
296296,24.77,101233.0781,-4375.9087,9.4536,-0.3923,0.9807,59.0909,3.1818,-5.9184,4.6403,4.9407,3.6368,-21.8014,-83.625,-3.2797,-37.5495,175.2624,35.5,0.01,4.1379
297297,24.78,101232.6172,-4375.8657,9.4144,-0.3923,1.216,59.0909,4.0909,-6.4286,3.8543,3.9966,3.7463,-17.8787,-82.271,-7.1731,-37.5495,175.2624,35.5,0,4.125
298298,24.78,101232.7656,-4375.8789,9.4144,-0.3138,1.0199,59,4,-6.0204,3.2043,2.8868,3.8,-17.1027,-83.5334,-8.6256,-37.5495,175.2624,35.5,0.04,4.1443
299299,24.78,101231.7656,-4375.7876,9.4928,-0.3138,1.0983,58.8182,4.0909,-6.0204,2.4786,2.0372,4.098,-15.9454,-83.1385,-9.32,-37.5495,175.2624,35.5,0.01,4.1379
300300,24.78,101229.1328,-4375.5469,9.4928,-0.1961,0.7061,59.3636,3,-6.9388,1.8375,1.0548,4.2385,-15.5241,-85.5857,-4.9077,-37.5495,175.2624,35.5,0.01,4.1443
301301,24.78,101236.2656,-4376.2002,9.4144,-0.3923,0.9022,59.9091,0.9091,-8.2653,1.2214,0.2274,4.4689,-23.4986,-84.0343,9.8863,-37.5495,175.2624,35.5,0.02,4.125
302302,24.79,101232.6875,-4375.8721,9.4536,-0.8238,0.4707,62,-4,-12.7551,0.7252,0.1982,4.4069,-60.2551,-84.269,55.3304,-37.5495,175.2624,35.5,0.02,4.125
303303,24.79,101233.3438,-4375.9321,9.4144,-0.9414,0.9022,62.5455,-5.2727,-13.9796,-0.1196,-0.6136,4.3232,-46.2189,-82.1143,43.6765,-37.5495,175.2624,35.5,0.04,4.1443
304304,24.79,101229.7031,-4375.5996,9.3359,-0.7453,0.7061,63.4545,-8.0909,-16.6327,-1.0276,-1.2367,4.4715,-46.5482,-83.7245,54.7452,-37.5495,175.2624,35.5,0.02,4.125
305305,24.8,101235.3594,-4376.1167,9.2967,-1.216,0.9414,64.3636,-9.8182,-19.1837,-1.6492,-2.0806,4.324,-52.2532,-80.6072,55.7303,-37.5495,175.2624,35.5,0.03,4.1314
306306,24.8,101230.2344,-4375.6479,9.2967,-2.1967,-0.863,73.4545,-29,-48.7755,-1.9746,-1.4797,4.2272,-111.4477,-75.7554,126.1021,-37.5495,175.2624,35.5,0.03,4.1379
307307,24.8,101228.5781,-4375.4956,8.7475,-3.0204,2.6674,63.1818,-8.6364,-19.1837,-2.6644,4.3962,2.5174,-48.5517,-65.2662,32.0568,-37.5495,175.2624,35.5,0.05,4.1379
308308,24.8,101231.2266,-4375.7383,7.5315,-5.4917,-3.4519,63.5455,-19.1818,10.6122,0.7804,0.5177,1.7955,-122.1523,-49.2633,-29.8515,-37.5495,175.2624,35.5,0.16,4.1379
309309,24.8,101227.2422,-4375.3735,8.4337,-4.9033,-0.2354,47.7273,-30.7273,31.6327,0.2162,4.2903,4.3225,-92.7481,-59.7978,-92.0879,-37.5495,175.2624,35.5,0.06,4.1443
310310,24.81,101228.5938,-4375.4976,10.8265,-5.9232,2.4713,41.2727,-38.0909,30.7143,2.4438,0.0438,4.4451,-67.3532,-59.3401,-144.765,-37.5495,175.2624,35.5,0.22,4.125
311311,24.81,101229.75,-4375.6035,8.2768,-5.1779,1.1768,47.5455,-37,24.6939,-0.6442,-0.7611,-1.9815,-77.1957,-57.318,-120.3569,-37.5495,175.2624,35.5,1.47,4.125
312312,24.81,101230.5781,-4375.6787,8.1199,-4.668,1.5691,46.6364,-35.7273,27.3469,1.6379,-1.8619,-2.2197,-71.4207,-58.7637,-130.0527,-37.5495,175.2624,35.4,0.06,4.1508
313313,24.81,101229.1406,-4375.5474,7.8845,-4.7464,1.6867,45.9091,-35.0909,27.9592,0.8027,-2.9241,-2.2066,-70.4362,-57.4266,-127.0982,-37.5495,175.2624,35.3,0.04,4.1443
314314,24.81,101228.75,-4375.5117,7.963,-4.7464,1.8437,46.0909,-34.6364,27.449,-0.2306,-3.636,-2.0647,-68.7723,-57.4033,-129.4726,-37.5495,175.2624,35.3,0.01,4.1314
315315,24.81,101228.1406,-4375.4565,8.4337,-2.4713,2.079,48.8182,-31.4545,27.0408,-0.8859,-4.7577,0.1286,-49.9271,-69.047,-178.807,-37.5495,175.2624,35.2,0.01,4.1314
316316,24.81,101228.1406,-4375.4565,8.9437,-2.0398,-3.295,59.2727,-26,16.5306,-4.9576,-1.6984,3.111,-148.2405,-66.5728,-52.1902,-37.5495,175.2624,35.2,0.17,4.1314
317317,24.82,101230.5,-4375.6724,8.7475,-2.1967,-3.5696,65.8182,-23.0909,0.102,-4.8113,3.3538,4.0329,-148.3925,-64.3986,-48.2415,-37.5495,175.2624,35.2,0.42,4.1314
318318,24.83,101231.2344,-4375.7388,8.5514,-0.6669,-4.2757,66.6364,-21.6364,-1.7347,-4.7706,2.4471,-4.8662,-171.1354,-63.1586,-39.5281,-37.5495,175.2624,35.2,0.59,4.1314
319319,24.82,101230.3359,-4375.6567,7.6884,-3.805,-3.6873,63.0909,-32.2727,-2.7551,3.8191,1.8558,1.1527,-134.1001,-55.4272,-53.5281,-37.5495,175.2624,35.3,0.15,4.1379
320320,24.83,101230.3828,-4375.6611,0.4707,-7.5707,-6.9039,38.2727,-43.0909,-47.449,-1.1519,-3.435,2.9195,-132.3622,-2.6304,9.6844,-37.5495,175.2624,35.3,0.17,4.125
321321,24.83,101225.4063,-4375.2061,-1.8044,6.9431,-5.7271,38.2727,29.8182,-36.7347,-4.68,4.2412,-2.0769,129.5178,11.3366,-11.3522,-37.5495,175.2624,35.3,0.25,4.1443
322322,24.83,101228.0625,-4375.4492,-1.1768,8.1984,-6.8254,32.8182,34.6364,-33.5714,-1.3282,-2.0255,-3.3373,129.7786,6.2951,-5.4857,-37.5495,175.2624,35.3,0.39,4.1379
323323,24.83,101230.4219,-4375.6646,-0.0392,7.4923,-7.1,41.2727,24.8182,-40.7143,-4.069,-2.7519,2.5595,133.4602,0.2177,-16.7591,-37.5495,175.2624,35.3,0.29,4.125
324324,24.84,101229.1094,-4375.5449,-0.9022,4.9033,-6.747,40.7273,10.4545,-50.9184,1.66,-0.7705,-2.0805,143.9924,6.1738,-25.2291,-37.5495,175.2624,35.4,0.26,4.125
325325,24.84,101230.1094,-4375.6362,0.0785,5.374,-8.6691,38.3636,11.1818,-52.8571,0.0392,-1.3273,-0.5452,148.2048,-0.4407,-25.7872,-37.5495,175.2624,35.4,0.38,4.1314
326326,24.84,101228.7813,-4375.5151,0.9807,7.6492,-6.3155,41.2727,13.5455,-49.0816,1.0398,-3.0846,-1.4384,129.5445,-5.6461,-38.3255,-37.5495,175.2624,35.5,0.06,4.1379
327327,24.84,101228.7813,-4375.5151,0.1569,8.5906,-7.4531,36.5455,18.7273,-49.2857,0.9594,-3.6093,0.5244,130.9442,-0.7904,-34.8036,-37.5495,175.2624,35.5,0.11,4.1314
328328,24.85,101230.6719,-4375.6875,-0.0392,9.5713,-1.7652,37.6364,34.0909,-31.4286,3.01,4.7356,0.5796,100.4494,0.2309,-33.1921,-37.5495,175.2624,35.6,0.14,4.1443
329329,24.85,101226.5,-4375.3057,-0.5099,10.3951,-2.432,33.7273,38.2727,-27.0408,0.8247,4.4428,1.8989,103.1682,2.7348,-26.2185,-37.5495,175.2624,35.6,0.03,4.1443
330330,24.86,101230.3594,-4375.5811,-0.6669,10.2774,-2.2359,32.3636,38.5455,-27.551,1.1924,4.8174,1.8957,102.2739,3.6278,-28.1137,-37.5495,175.2624,35.5,0.05,4.1379
331331,24.85,101230.3438,-4375.6582,0,9.4928,-1.2553,33.5455,39.5455,-23.6735,2.4311,4.9236,1.2213,97.5326,0,-28.5942,-37.5495,175.2624,35.5,0.07,4.1508
332332,24.86,101229.875,-4375.6147,0,10.3166,-5.2956,36.9091,34.1818,-31.7347,-2.3204,2.837,1.0661,117.1718,0,-18.8809,-37.5495,175.2624,35.5,0.04,4.1379
333333,24.85,101228.5156,-4375.4902,0,8.2768,-4.0011,40.2727,31.2727,-32.9592,-3.9725,0.7028,0.7188,115.7997,0,-21.745,-37.5495,175.2624,35.5,0.06,4.1443
334334,24.87,101225.9453,-4375.2549,1.6475,9.8067,-6.0801,44,23.5455,-39.4898,4.8135,-2.0589,0.6774,121.7989,-8.126,-29.2419,-37.5495,175.2624,35.5,0.15,4.125
335335,24.87,101226.4609,-4375.3022,1.726,12.2779,-1.9613,43.9091,34.5455,-21.0204,-1.2055,-3.3196,1.0398,99.076,-7.903,-21.7622,-37.5495,175.2624,35.5,0.09,4.1379
336336,24.87,101229.6094,-4375.5908,1.726,8.2376,0.5492,45,33.9091,-21.0204,-0.7636,-2.4891,0.4044,86.1859,-11.8082,-31.8378,-37.5495,175.2624,35.5,0.05,4.1314
337337,24.87,101226.4609,-4375.3022,1.6867,9.179,-1.216,45.7273,33.4545,-21.2245,-3.1186,-4.7828,0.7236,97.5465,-10.3243,-23.3596,-37.5495,175.2624,35.5,0.03,4.125
338338,24.88,101230.1797,-4375.6431,4.158,8.0415,-3.9619,44.3636,35,-19.0816,-0.6663,-3.3434,0.3729,116.2287,-24.8835,-4.0151,-37.5495,175.2624,35.5,0.05,4.1379
339339,24.88,101227.3594,-4375.3843,2.3536,8.1199,-3.6481,43.0909,30.8182,-30.4082,4.8883,-2.2811,0.3968,114.1932,-14.8099,-25.7736,-37.5495,175.2624,35.5,0.19,4.1314
340340,24.89,101229.5469,-4375.5845,3.1381,9.2183,-3.3343,48.4545,27.4545,-29.1837,3.4485,4.0178,0.0266,109.8852,-17.7513,-27.1865,-37.5495,175.2624,35.5,0.24,4.1443
341341,24.88,101225.0313,-4375.1709,2.8243,10.5912,-1.5298,53.2727,23.9091,-25.7143,3.091,-0.7454,-1.164,98.2192,-14.7848,-26.3237,-37.5495,175.2624,35.5,0.25,4.1314
342342,24.89,101221.75,-4374.8711,4.5111,8.8652,-1.9613,53.9091,22.6364,-27.551,1.7933,-0.8874,-1.9085,102.4751,-26.4198,-31.5867,-37.5495,175.2624,35.6,0.16,4.1379
343343,24.89,101221.5781,-4374.855,1.9221,6.9431,-4.0403,43.2727,12.2727,-48.4694,-0.7405,-0.2413,-3.5219,120.196,-13.4563,-46.4607,-37.5495,175.2624,35.8,0.12,4.1314
344344,24.9,101234.0938,-4375.7671,-1.8829,-11.8857,2.432,-1.0909,-43.0909,37.3469,3.0169,-0.4881,0.2731,-78.4357,8.8219,-76.8215,-37.5495,175.2624,36,0.15,4.1314
345345,24.9,101237.25,-4376.29,-1.0199,-8.7475,3.9619,2.1818,-42.2727,39.6939,1.4804,-1.4183,1.5259,-65.6335,6.0625,-66.9459,-37.5495,175.2624,36.1,0.15,4.125
346346,24.9,101236.5781,-4376.2285,-1.3337,-8.9829,3.7658,5.4545,-42.4545,39.4898,1.2877,-1.6884,-0.3728,-67.2559,7.7968,-57.4146,-37.5495,175.2624,36.3,0.14,4.1379
347347,24.91,101234.7969,-4376.0654,-0.2354,-9.3359,2.3144,10.5455,-49.0909,33.5714,3.7935,-1.5241,2.2523,-76.0771,1.4017,-60.182,-37.5495,175.2624,36.4,0.14,4.1379
348348,24.91,101238.9375,-4376.4448,-0.7845,-9.4928,1.2945,11.7273,-53,28.0612,-4.871,0.8598,1.4197,-82.2348,4.6813,-51.7331,-37.5495,175.2624,36.6,0.08,4.1443
349349,24.91,101236.7656,-4376.2461,-0.6669,-9.7282,1.3729,11.5455,-53.0909,27.551,3.8491,-0.6353,1.9461,-81.9669,3.883,-52.3199,-37.5495,175.2624,36.7,0.07,4.1314
350350,24.91,101238.7813,-4376.4302,-0.0785,-9.8067,2.1182,11,-52,28.9796,2.3347,-1.9384,2.1107,-77.8114,0.448,-56.5853,-37.5495,175.2624,36.8,0.03,4.1379
351351,24.9,101231.7734,-4375.7886,-1.4514,-8.7083,1.8829,9.5455,-51.4545,29.7959,1.2372,-3.855,2.3375,-77.7995,9.2523,-44.5778,-37.5495,175.2624,36.9,0.02,4.1379
352352,24.91,101236.4531,-4376.2163,-0.5492,-12.7094,0.9414,11,-49.2727,33.2653,-0.3807,-3.4386,2.1316,-85.7636,2.4675,-65.9006,-37.5495,175.2624,36.9,0.04,4.1379
353353,24.92,101231.7109,-4375.7832,5.2564,-7.4531,7.1392,33.9091,-29.4545,41.1224,2.1803,-0.161,-4.4508,-46.232,-26.9899,-50.6142,-37.5495,175.2624,37,0.05,4.1508
354354,24.92,101222.3672,-4374.9277,7.0216,-6.1586,-1.3729,44.5455,-51.7273,10.2041,-2.7888,-0.8938,-0.0495,-102.5674,-48.0563,-106.1101,-37.5495,175.2624,37,0.21,4.1379
355355,24.92,101221.0938,-4374.811,8.1984,-5.884,-0.1569,45.4545,-45.7273,18.9796,0.6794,-2.2584,0.763,-91.5275,-54.3232,-116.8265,-37.5495,175.2624,37,0.01,4.1443
356356,24.93,101227.4688,-4375.394,4.9818,-8.5906,-1.1768,33.9091,-60,3.2653,3.2985,0.4979,-1.6295,-97.8002,-29.8792,-89.956,-37.5495,175.2624,37,0.14,4.1314
357357,24.93,101224.2656,-4375.1016,4.5895,-12.8663,-3.9619,44.6364,-56,-3.8776,3.5927,1.202,1.9749,-107.115,-18.8248,-27.4318,-37.5495,175.2624,37,0.14,4.1443
358358,24.93,101231.6094,-4375.7739,9.2183,-3.6481,1.8829,49.9091,-51.2727,0.102,4.268,-2.2933,-3.1377,-62.7004,-65.9943,132.3591,-37.5495,175.2624,37,0.34,4.1443
359359,24.93,101231.1094,-4375.728,7.8845,-5.2956,-0.4707,44.8182,-55.8182,-2.6531,-0.0854,-0.5779,4.7185,-95.0796,-56.0086,-173.8201,-37.5495,175.2624,37,1.7,4.1314
360360,24.94,101232.6719,-4375.8711,7.8845,-3.8834,1.4122,41.9091,-57.3636,-2.551,3.0588,-2.388,-4.809,-70.0169,-62.3414,141.3624,-37.5495,175.2624,36.9,0.17,4.1508
361361,24.94,101233.5,-4375.9473,6.6293,-7.963,3.1381,25.8182,-63.4545,0.5102,1.3211,-0.7436,-0.6212,-68.4912,-37.7591,124.8222,-37.5495,175.2624,36.7,0.33,4.1314
362362,24.94,101239.1406,-4376.4629,2.2751,-12.1602,4.5111,11,-64.6364,-17.449,1.1107,-2.5226,4.8217,-69.6468,-9.9493,87.917,-37.5495,175.2624,36.4,1.42,4.1379
363363,24.95,101239.6563,-4376.5103,3.2558,-12.3564,-4.4326,-1.1818,-63.3636,-4.1837,-3.4836,2.7999,2.2591,-109.7344,-13.9292,-132.2268,-37.5495,175.2624,36.1,2.2,4.1379
364364,24.95,101238.6641,-4376.4194,-0.1177,-7.5707,-1.5298,0.3636,-63.7273,-5.3061,-3.7735,-3.574,3.7248,-101.4241,0.8729,-79.8307,-37.5495,175.2624,35.9,2.28,4.1379
365365,24.95,101238.8438,-4376.436,0.9807,-3.0204,-3.3343,8.5455,-45.6364,-50.5102,3.0626,-2.3019,-2.5059,-137.8271,-12.2968,179.1717,-37.5495,175.2624,35.7,3.01,4.125
366366,24.96,101239.8906,-4376.5317,3.5696,-9.0613,0.9414,11.0909,-60.2727,-31.3265,3.2939,3.9321,-2.0392,-84.0685,-21.3968,105.4932,-37.5495,175.2623,35.9,3.41,4.1379
367367,24.95,101237.5156,-4376.3149,2.0398,-8.8652,3.0989,16,-52.3636,-44.7959,-2.2031,-0.1811,-1.0661,-70.7325,-12.2544,82.0852,-37.5495,175.2623,35.9,2.89,4.125
368368,24.97,101240.5938,-4376.5967,0.353,-7.8061,-1.726,6.4545,-57.3636,-36.8367,3.8552,3.7397,-2.0795,-102.4678,-2.5285,81.2582,-37.5494,175.2623,35.9,3.63,4.125
369369,24.96,101237.5703,-4376.3198,1.4514,-5.2171,-2.8635,2.0909,-62,-23.3673,-2.5122,-3.7357,-1.7686,-118.7612,-13.7055,-145.3215,-37.5494,175.2623,35.9,2.78,4.125
370370,24.97,101240.7578,-4376.6113,0.0785,-9.179,-1.8044,-6.5455,-61.1818,-15.9184,-4.379,-1.0531,-4.2948,-101.1215,-0.4805,151.6441,-37.5494,175.2623,35.9,2.8,4.1314
371371,24.97,101241.9219,-4376.7178,-0.2746,-14.0039,-2.8243,-7.0909,-59.9091,-19.4898,-3.9234,0.3969,-4.2162,-101.4025,1.1011,129.0337,-37.5494,175.2623,35.7,2.82,4.1379
372372,24.97,101238.625,-4376.416,0.2354,-16.8282,-3.6088,-3.8182,-60.7273,-21.0204,-3.7125,-1.5495,-3.4662,-102.1039,-0.7835,120.9546,-37.5494,175.2623,35.7,3.37,4.1314
373373,24.98,101239.1719,-4376.4517,2.942,-14.8277,-2.2751,-0.4545,-63.3636,-6.3265,-1.6063,1.2194,-4.7903,-98.7234,-11.0959,-165.1773,-37.5494,175.2622,35.6,3.43,4.1443
374374,24.98,101232.0469,-4375.8135,0.8238,-6.9431,-3.0204,1.6364,-63.6364,-13.9796,-0.9684,-2.6979,-3.9996,-113.5104,-6.2091,-112.8206,-37.5494,175.2622,35.5,3.21,4.1379
